     2.11           OBSERVATION DATA    M (MIXED)           RINEX VERSION / TYPE
teqc  2012Jun6                          20141210 00:09:20UTCPGM / RUN BY / DATE
LHAZ                                                        MARKER NAME
21613M002                                                   MARKER NUMBER
AUTOMATIC           BKG/GOWETTZELL+TBSM                     OBSERVER / AGENCY
AE7PEWVFA4G         TPS E_GGD           3.4 DEC,12,2009 P2  REC # / TYPE / VERS
2199911007          ASH701941.B     SNOW                    ANT # / TYPE
  -106942.1700  5549274.7500  3139222.2700                  APPROX POSITION XYZ
        0.1330        0.0000        0.0000                  ANTENNA: DELTA H/E/N
     1     1                                                WAVELENGTH FACT L1/2
     9    C1    P1    P2    L1    L2    D1    D2    S1    S2# / TYPES OF OBSERV
    30.0000                                                 INTERVAL
     0                                                      RCV CLOCK OFFS APPL
  2014    12     9     0     0   30.0000000     GPS         TIME OF FIRST OBS
    16                                                      LEAP SECONDS
Linux 2.4.20-8|Pentium IV|gcc -static|Linux|486/DX+         COMMENT
MAKERINEX 2.0.11285 BKG/GOWETTZELL+TBSM 2014-12-09 01:04    COMMENT
                                                            END OF HEADER
 14 12  9  0  0 30.0000000  0 15R15R17R08G20R23G28G17G24G02G06R01G10  .000436007
                                R13R24R14
  22619918.110    22619917.996    22619922.993   120873989.773 7  94013138.450 7
      2696.390        2097.196          45.000          43.000
  22277905.267    22277904.620    22277908.510   119213576.537 8  92721706.298 7
      1002.869         780.009          48.000          45.000
  22790310.628    22790311.151    22790314.550   122041107.679 7  94920911.340 7
      -493.809        -384.073          44.000          45.000
  23435924.453    23435923.891    23435926.727   123156637.327 4  95966214.894 4
     -2074.365       -1616.393          27.000          27.000
  22774099.936    22774098.335    22774103.387   121826081.702 5  94753655.739 5
     -2774.175       -2157.697          33.000          33.000
  21626436.067    21626435.567    21626438.315   113647702.665 6  88556670.009 6
     -2243.023       -1747.809          38.000          38.000
  21724542.628    21724542.607    21724544.772   114163259.452 6  88958404.468 6
     -1225.358        -954.827          41.000          41.000
  23629223.182    23629223.262    23629228.536   124172423.630 4  96757732.682 4
       314.890         245.369          26.000          26.000
  22401520.107    22401519.139    22401520.187   117720802.777 6  91730517.681 6
      1685.836        1313.637          36.000          36.000
  20403923.618    20403923.939    20403929.054   107223384.809 8  83550709.847 8
      -162.012        -126.245          48.000          48.000
  22463255.135    22463254.479    22463261.758   120079000.302 7  93394775.046 6
      2360.584        1836.010          46.000          39.000
  23049680.053    23049678.918    23049683.362   121126956.608 4  94384592.836 4
      2840.077        2213.046          27.000          27.000
  21428454.848    21428454.528    21428459.693   114426777.702 7  88998636.100 7
     -4307.029       -3349.909          47.000          46.000
  20625779.933    20625779.358    20625781.869   110295378.470 8  85785336.610 7
     -1178.173        -916.363          51.000          43.000
  19919204.245    19919203.642    19919211.407   106180590.396 8  82584934.824 7
      -625.318        -486.359          48.000          45.000
 14 12  9  0  1  0.0000000  0 15R15R17R08G20R23G28G17G24G02G06R01G10  .000445728
                                R13R24R14
  22604827.117    22604828.093    22604833.199   120793354.625 7  93950422.236 7
      2679.550        2084.096          45.000          43.000
  22272299.865    22272299.727    22272303.397   119183582.160 8  92698377.321 7
       996.999         775.443          48.000          45.000
  22793143.757    22793143.523    22793147.211   122056275.352 7  94932708.372 7
      -517.119        -402.203          44.000          45.000
  23447815.779    23447814.937    23447817.767   123219124.408 4  96014906.103 4
     -2091.200       -1629.489          27.000          27.000
  22789648.675    22789653.240    22789657.797   121909288.010 5  94818371.708 5
     -2772.372       -2156.292          34.000          33.000
  21639281.805    21639281.123    21639283.700   113715205.490 6  88609269.581 6
     -2256.902       -1758.625          38.000          38.000
  21731546.769    21731546.738    21731549.101   114200066.909 6  88987085.588 6
     -1228.188        -957.027          41.000          41.000
  23627475.592    23627475.027    23627481.032   124163240.525 4  96750576.993 4
       297.588         231.893          26.000          26.000
  22391924.883    22391924.341    22391925.452   117670382.869 6  91691229.456 6
      1675.735        1305.766          36.000          36.000
  20404894.644    20404894.982    20404900.037   107228487.427 8  83554685.912 8
      -177.912        -138.631          48.000          48.000
  22450039.499    22450039.280    22450046.081   120008357.922 7  93339830.971 6
      2349.173        1827.132          47.000          39.000
  23033480.282    23033479.795    23033482.993   121041824.863 4  94318256.391 4
      2835.563        2209.544          28.000          28.000
  21452690.110    21452689.387    21452694.244   114556189.239 7  89099289.493 7
     -4320.152       -3360.116          47.000          46.000
  20632402.843    20632402.032    20632404.712   110330793.938 8  85812881.977 7
     -1182.553        -919.762          51.000          43.000
  19922803.006    19922803.004    19922810.782   106199777.633 8  82599858.219 7
      -653.571        -508.333          48.000          44.000
 14 12  9  0  1 30.0000000  0 15R15R17R08G20R23G28G17G24G02G06R01G10  .000455450
                                R13R24R14
  22589831.606    22589832.609    22589838.603   120713225.145 7  93888099.315 7
      2662.443        2070.787          45.000          43.000
  22266727.880    22266726.967    22266731.006   119153759.913 8  92675182.211 7
       991.148         770.895          48.000          45.000
  22796106.013    22796106.207    22796109.295   122072139.299 7  94945046.985 7
      -540.500        -420.391          45.000          45.000
  23459801.886    23459801.011    23459803.300   123282112.546 4  96063987.760 4
     -2108.011       -1642.602          26.000          26.000
  22805197.804    22805196.171    22805202.971   121992439.959 5  94883045.296 5
     -2770.843       -2155.098          32.000          33.000
  21652206.623    21652205.575    21652207.801   113783121.675 6  88662191.252 6
     -2270.800       -1769.454          38.000          38.000
  21738566.715    21738566.591    21738568.868   114236956.303 7  89015830.558 7
     -1231.082        -959.285          42.000          42.000
  23625826.768    23625826.342    23625832.306   124154574.660 4  96743824.364 4
       280.158         218.313          26.000          26.000
  22382387.980    22382386.888    22382388.096   117620263.364 6  91652175.309 6
      1665.588        1297.861          36.000          36.000
  20405955.994    20405956.183    20405961.286   107234064.023 8  83559031.311 7
      -193.825        -151.034          48.000          47.000
  22436888.316    22436888.265    22436895.256   119938056.719 7  93285152.243 6
      2337.539        1818.087          47.000          39.000
  23017305.985    23017305.110    23017308.760   120956827.097 4  94252024.365 4
      2830.885        2205.877          28.000          28.000
  21476998.030    21476997.185    21477001.823   114685989.068 7  89200244.885 7
     -4333.149       -3370.227          47.000          46.000
  20639049.153    20639048.679    20639051.784   110366337.012 8  85840526.587 7
     -1186.930        -923.166          50.000          43.000
  19926561.384    19926560.877    19926568.471   106219809.568 7  82615438.597 7
      -681.872        -530.344          47.000          44.000
 14 12  9  0  2  0.0000000  0 15R15R17R08G20R23G28G17G24G02G06R01G10  .000465173
                                R13R24R14
  22574934.176    22574934.246    22574938.953   120633608.507 7  93826175.272 7
      2645.568        2057.664          46.000          42.000
  22261187.924    22261187.232    22261190.683   119124112.474 8  92652123.064 7
       985.604         766.580          49.000          46.000
  22799199.403    22799199.497    22799202.398   122088704.258 7  94957930.844 7
      -563.583        -438.342          44.000          43.000
  23471884.068    23471882.605    23471885.391   123345604.225 4  96113461.757 4
     -2124.512       -1655.448          24.000          24.000
  22820732.297    22820732.719    22820739.394   122075540.733 6  94947679.238 5
     -2768.803       -2153.514          36.000          31.000
  21665209.350    21665208.547    21665211.302   113851454.831 6  88715437.832 6
     -2284.493       -1780.125          38.000          38.000
  21745603.120    21745602.874    21745605.379   114273932.222 7  89044642.954 7
     -1233.724        -961.344          42.000          42.000
  23624276.605    23624276.886    23624282.165   124146430.240 4  96737478.044 4
       263.039         204.985          26.000          26.000
  22372908.014    22372907.241    22372908.214   117570448.559 6  91613358.594 6
      1655.637        1290.103          36.000          36.000
  20407107.980    20407108.152    20407113.273   107240117.568 8  83563748.359 8
      -209.473        -163.225          48.000          48.000
  22423801.735    22423801.511    22423809.629   119868105.277 7  93230745.558 6
      2326.103        1809.191          46.000          39.000
  23001158.969    23001156.483    23001161.050   120871970.355 4  94185902.219 4
      2826.444        2202.413          28.000          28.000
  21501377.799    21501376.734    21501381.441   114816176.312 7  89301501.600 7
     -4345.724       -3380.009          47.000          46.000
  20645719.946    20645719.577    20645722.474   110402009.754 8  85868272.047 7
     -1190.966        -926.304          50.000          43.000
  19930478.327    19930477.866    19930485.537   106240689.762 7  82631678.739 7
      -709.861        -552.117          47.000          44.000
 14 12  9  0  2 30.0000000  0 15R15R17R08G20R23G28G17G24G02G06R01G10  .000474899
                                R13R24R14
  22560129.984    22560131.218    22560137.031   120554507.879 7  93764652.575 7
      2628.095        2044.073          46.000          42.000
  22255678.392    22255678.902    22255682.391   119094638.224 8  92629198.673 7
       979.622         761.929          48.000          46.000
  22802423.274    22802423.363    22802426.985   122105971.023 7  94971360.512 7
      -587.259        -456.753          42.000          44.000
  23484062.006    23484061.285    23484063.518   123409598.038 4  96163327.041 4
     -2141.446       -1668.632          24.000          24.000
  22836258.327    22836257.862    22836263.025   122158589.804 5  95012273.019 5
     -2767.331       -2152.359          34.000          30.000
  21678292.395    21678291.514    21678294.081   113920204.073 6  88769008.634 6
     -2298.573       -1791.094          38.000          38.000
  21752655.502    21752655.277    21752658.060   114310994.411 7  89073522.566 7
     -1236.836        -963.767          42.000          42.000
  23622826.240    23622827.114    23622832.328   124138807.248 4  96731538.048 4
       245.411         191.228          26.000          26.000
  22363487.094    22363486.082    22363486.675   117520938.961 6  91574779.701 6
      1645.245        1282.011          36.000          36.000
  20408350.127    20408350.609    20408355.862   107246647.006 8  83568836.226 8
      -225.547        -175.748          48.000          48.000
  22410781.969    22410781.629    22410788.865   119798508.092 7  93176614.407 6
      2313.992        1799.772          46.000          38.000
  22985038.002    22985036.874    22985041.001   120787257.652 4  94119892.309 4
      2821.374        2198.468          28.000          28.000
  21525828.853    21525828.392    21525833.424   114946746.046 7  89403055.809 7
     -4358.624       -3390.039          47.000          46.000
  20652415.449    20652414.854    20652417.927   110437810.955 8  85896117.417 7
     -1195.468        -929.805          50.000          44.000
  19934554.841    19934554.176    19934561.535   106262417.013 8  82648577.697 7
      -738.356        -574.276          48.000          44.000
 14 12  9  0  3  0.0000000  0 15R15R17R08G20R23G28G17G24G02G06R01G10  .000484624
                                R13R24R14
  22545424.214    22545424.868    22545430.701   120475923.645 7  93703531.503 6
      2611.184        2030.920          45.000          41.000
  22250202.690    22250202.093    22250205.858   119065332.881 8  92606405.603 7
       974.434         757.893          48.000          46.000
  22805779.819    22805779.446    22805781.946   122123936.910 7  94985333.963 7
      -610.156        -474.565          45.000          45.000
  23496333.625    23496333.299    23496336.033   123474089.197 4  96213579.871 4
     -2157.655       -1681.305          25.000          25.000
  22851774.720    22851772.310    22851777.617   122241583.462 5  95076823.591 5
     -2765.070       -2150.604          33.000          31.000
  21691453.211    21691452.594    21691455.514   113989366.061 6  88822901.064 6
     -2311.895       -1801.478          38.000          38.000
  21759723.853    21759724.105    21759726.584   114348139.782 6  89102466.997 6
     -1239.198        -965.608          41.000          41.000
  23621474.566    23621474.739    23621480.000   124131702.642 4  96726001.971 4
       228.503         178.054          26.000          26.000
  22354123.228    22354122.112    22354122.732   117471731.774 6  91536436.445 6
      1635.548        1274.454          36.000          36.000
  20409682.794    20409682.962    20409688.222   107253648.181 8  83574291.681 8
      -240.877        -187.695          48.000          48.000
  22397829.807    22397829.064    22397835.801   119729265.626 7  93122759.161 6
      2302.481        1790.814          46.000          38.000
  22968945.028    22968944.061    22968947.708   120702688.844 4  94053994.532 4
      2816.915        2194.991          29.000          29.000
  21550350.407    21550350.081    21550354.907   115077690.425 7  89504901.402 7
     -4370.676       -3399.414          46.000          46.000
  20659133.596    20659132.901    20659135.837   110473735.599 8  85924058.802 7
     -1199.173        -932.692          50.000          44.000
  19938789.170    19938788.618    19938795.559   106284988.180 8  82666133.035 7
      -766.085        -595.843          48.000          44.000
 14 12  9  0  3 30.0000000  0 14R15R17R08G20G28G17G24G02G06R01G10R13  .000494351
                                R24R14
  22530817.178    22530816.849    22530822.926   120397863.041 7  93642817.697 6
      2593.269        2016.985          46.000          41.000
  22244757.583    22244757.288    22244761.073   119036197.804 7  92583744.965 7
       968.355         753.166          47.000          46.000
  22809264.900    22809265.531    22809268.512   122142605.227 7  94999853.748 7
      -633.966        -493.081          44.000          46.000
  23508701.586    23508699.947    23508703.186   123539079.022 4  96264221.252 4
     -2174.567       -1694.469          25.000          25.000
  21704693.449    21704692.515    21704695.603   114058942.820 6  88877116.684 6
     -2326.117       -1812.557          37.000          38.000
  21766808.901    21766808.966    21766811.249   114385370.899 7  89131478.236 7
     -1242.422        -968.115          42.000          42.000
  23620221.555    23620222.086    23620227.327   124125118.500 4  96720871.468 4
       210.833         164.287          26.000          26.000
  22344817.225    22344816.808    22344817.071   117422830.182 6  91498331.320 6
      1625.014        1266.248          36.000          36.000
  20411104.958    20411105.307    20411110.605   107261122.683 8  83580115.965 8
      -256.994        -200.256          48.000          48.000
  22384943.229    22384943.398    22384949.093   119660385.509 7  93069185.735 6
      2289.989        1781.104          46.000          38.000
  22952881.431    22952879.834    22952883.620   120618269.898 4  93988213.527 4
      2811.471        2190.760          29.000          29.000
  21574942.467    21574941.735    21574946.326   115209007.937 7  89607037.213 7
     -4383.378       -3409.291          46.000          46.000
  20665875.146    20665874.400    20665877.153   110509785.141 8  85952097.328 7
     -1203.654        -936.178          50.000          43.000
  19943182.392    19943181.694    19943188.648   106308405.036 8  82684346.128 7
      -794.625        -618.041          48.000          44.000
 14 12  9  0  4  0.0000000  0 15R15R17R08G20R23G28G17G24G02G06R01G10 -.000495922
                                R13R24R14
  22216514.112    22216514.637    22216518.967   118718324.968 7  92336510.308 6
      2575.777        2003.381          46.000          40.000
  21939550.974    21939551.155    21939554.986   117402978.579 8  91313463.347 7
       962.945         748.954          48.000          46.000
  22513090.273    22513089.901    22513093.314   120556600.322 7  93766294.353 7
      -657.269        -511.207          43.000          45.000
  23221370.318    23221368.836    23221372.199   122029145.898 4  95087649.934 4
     -2190.970       -1707.242          26.000          26.000
  22582980.026    22582980.950    22582985.313   120803734.492 6  93958477.748 5
     -2761.815       -2148.085          37.000          34.000
  21418220.334    21418219.347    21418221.860   112553514.014 6  87704055.241 6
     -2339.763       -1823.188          37.000          38.000
  21474117.619    21474117.519    21474119.961   112847267.346 7  87932955.969 6
     -1245.174        -970.266          42.000          41.000
  23319275.136    23319275.473    23319281.002   122543633.300 4  95488545.319 4
       193.595         150.875          26.000          27.000
  22035776.722    22035776.152    22035776.385   115798810.266 6  90232861.266 6
      1614.950        1258.404          37.000          37.000
  20112824.517    20112824.783    20112829.898   105693647.614 8  82358706.816 8
      -272.585        -212.403          48.000          48.000
  22072333.331    22072333.387    22072340.763   117989304.966 7  91769456.413 6
      2277.826        1771.638          46.000          39.000
  22637052.557    22637050.946    22637055.353   118958578.822 5  92694947.738 5
      2806.461        2186.858          30.000          30.000
  21299811.529    21299810.451    21299814.698   113739820.495 7  88464335.837 7
     -4395.390       -3418.638          46.000          45.000
  20372846.974    20372846.156    20372849.433   108942831.785 8  84733355.812 7
     -1207.589        -939.236          50.000          44.000
  19647941.772    19647940.643    19647947.475   104734603.332 8  81460278.120 7
      -822.634        -639.826          48.000          44.000
 14 12  9  0  4 30.0000000  0 15R15R17R08G20R23G28G17G24G02G06R01G10 -.000486196
                                R13R24R14
  22202103.153    22202103.557    22202108.599   118641317.945 7  92276615.944 6
      2558.180        1989.694          46.000          40.000
  21934168.260    21934167.829    21934172.123   117374175.855 7  91291061.255 7
       957.481         744.707          47.000          45.000
  22516837.653    22516838.404    22516841.186   120576671.246 7  93781905.038 7
      -680.590        -529.347          44.000          45.000
  23233925.167    23233924.392    23233927.731   122095123.884 4  95139061.288 4
     -2207.388       -1720.044          27.000          27.000
  22598461.541    22598460.940    22598469.352   120886562.679 5  94022899.623 5
     -2759.889       -2146.578          34.000          34.000
  21431616.382    21431615.923    21431618.530   112623914.292 6  87758912.567 6
     -2353.390       -1833.812          37.000          37.000
  21481234.515    21481234.474    21481236.979   112884666.294 7  87962097.988 7
     -1247.863        -972.363          42.000          42.000
  23318219.866    23318220.164    23318226.189   122538086.486 4  95484223.125 4
       176.413         137.466          27.000          27.000
  22026586.884    22026585.976    22026586.283   115750515.864 6  90195229.269 6
      1604.901        1250.570          37.000          37.000
  20114425.563    20114425.829    20114430.941   105702061.273 8  82365262.910 8
      -288.123        -224.512          48.000          48.000
  22059584.985    22059584.581    22059592.033   117921157.517 7  91716452.822 6
      2265.563        1762.107          46.000          39.000
  22621046.424    22621044.675    22621048.913   118874464.388 5  92629403.996 5
      2801.384        2182.891          30.000          30.000
  21324539.068    21324538.081    21324542.774   113871864.864 7  88567036.981 7
     -4407.308       -3427.908          46.000          46.000
  20379633.140    20379632.642    20379635.476   108979122.049 8  84761581.559 7
     -1211.509        -942.284          50.000          43.000
  19652650.169    19652649.636    19652656.554   104759705.251 8  81479801.819 7
      -850.635        -661.605          48.000          44.000
 14 12  9  0  5  0.0000000  0 15R15R17R08G20R23G28G17G24G02G06R01G10 -.000476470
                                R13R24R14
  22187792.120    22187792.347    22187797.624   118564843.342 7  92217135.689 6
      2540.079        1975.615          46.000          40.000
  21928815.670    21928816.114    21928819.938   117345537.800 7  91268787.232 7
       951.714         740.222          47.000          46.000
  22520717.667    22520717.974    22520720.707   120597444.508 7  93798062.007 7
      -704.269        -547.766          45.000          46.000
  23246574.390    23246573.059    23246576.588   122161594.120 4  95190856.226 4
     -2224.009       -1732.995          29.000          29.000
  22613936.700    22613937.900    22613941.245   120969334.289 5  94087277.513 5
     -2758.217       -2145.278          35.000          31.000
  21445090.607    21445090.456    21445093.742   112694725.956 6  87814090.449 6
     -2367.376       -1844.703          37.000          37.000
  21488366.915    21488367.137    21488369.885   112922149.890 7  87991305.969 7
     -1251.018        -974.820          42.000          42.000
  23317262.604    23317263.682    23317268.730   122533058.669 4  95480305.332 4
       158.780         123.719          27.000          27.000
  22017454.975    22017453.729    22017454.260   115702526.262 6  90157834.780 6
      1594.420        1242.405          37.000          37.000
  20116115.735    20116115.945    20116121.159   105710943.352 8  82372184.005 8
      -303.991        -236.875          48.000          48.000
  22046906.163    22046905.695    22046913.194   117853383.108 7  91663739.382 6
      2252.754        1752.143          45.000          39.000
  22605068.682    22605067.567    22605072.344   118790507.473 5  92563983.009 5
      2795.771        2178.532          30.000          30.000
  21349333.757    21349332.532    21349337.143   114004266.543 7  88670016.028 7
     -4419.436       -3437.338          46.000          46.000
  20386441.588    20386441.051    20386444.002   109015530.734 8  84789899.412 7
     -1215.721        -945.563          50.000          44.000
  19657516.633    19657516.605    19657523.441   104785648.994 8  81499980.269 7
      -878.936        -683.615          48.000          44.000
 14 12  9  0  5 30.0000000  0 15R15R17R08G20R23G28G17G24G02G06R01G10 -.000466742
                                R13R24R14
  22173581.440    22173582.298    22173586.644   118488907.410 7  92158074.397 6
      2522.107        1961.638          46.000          40.000
  21923495.555    21923495.725    21923499.080   117317066.344 7  91246642.764 7
       946.198         735.934          47.000          45.000
  22524729.408    22524729.380    22524731.551   120618924.238 7  93814768.437 7
      -727.847        -566.102          44.000          46.000
  23259317.072    23259316.418    23259319.127   122228558.170 5  95243035.939 5
     -2240.434       -1745.782          30.000          31.000
  22629404.567    22629398.255    22629407.131   121052052.603 5  94151614.030 5
     -2756.692       -2144.079          30.000          30.000
  21458645.418    21458644.637    21458647.341   112765951.530 6  87869590.865 6
     -2381.134       -1855.432          37.000          37.000
  21495517.085    21495516.680    21495519.469   112959721.250 6  88020582.334 6
     -1253.907        -977.072          41.000          41.000
  23316405.178    23316406.157    23316411.552   122528553.372 4  95476794.691 4
       141.411         110.193          27.000          27.000
  22008380.725    22008380.289    22008380.724   115654844.976 6  90120680.530 6
      1584.172        1234.424          37.000          37.000
  20117895.458    20117895.748    20117900.892   105720296.012 8  82379471.786 8
      -319.638        -249.066          48.000          48.000
  22034299.210    22034298.733    22034306.112   117785989.542 7  91611322.153 6
      2239.991        1742.214          46.000          39.000
  22589123.913    22589122.878    22589127.590   118706714.588 5  92498689.830 5
      2790.269        2174.245          31.000          31.000
  21374194.359    21374193.549    21374198.689   114137024.177 7  88773271.933 7
     -4431.177       -3446.468          46.000          45.000
  20393273.383    20393272.412    20393275.064   109052059.870 8  84818310.953 7
     -1219.728        -948.677          50.000          43.000
  19662543.069    19662542.107    19662548.900   104812437.025 8  81520815.387 7
      -907.017        -705.457          48.000          44.000
 14 12  9  0  6  0.0000000  0 14R15R17R08G20G28G17G24G02G06R01G10R13 -.000457013
                                R24R14
  22159471.977    22159473.035    22159477.809   118413512.499 7  92099433.904 6
      2504.062        1947.606          45.000          41.000
  21918206.080    21918205.852    21918208.992   117288758.160 7  91224625.295 7
       940.806         731.737          47.000          45.000
  22528872.698    22528872.321    22528874.588   120641108.919 7  93832023.140 7
      -751.318        -584.361          43.000          46.000
  23272153.529    23272152.471    23272155.402   122296013.093 5  95295598.159 5
     -2256.730       -1758.493          31.000          31.000
  21472276.801    21472276.210    21472279.654   112837588.722 6  87925412.018 6
     -2394.825       -1866.092          37.000          37.000
  21502682.644    21502682.699    21502685.453   112997378.907 6  88049925.933 6
     -1256.754        -979.290          41.000          41.000
  23315647.776    23315647.758    23315653.141   122524568.253 4  95473689.392 4
       124.114          96.713          28.000          28.000
  21999366.487    21999365.470    21999365.641   115607470.828 6  90083765.616 6
      1573.961        1226.463          37.000          38.000
  20119763.896    20119764.481    20119769.610   105730116.332 8  82387123.977 7
      -335.200        -261.196          48.000          47.000
  22021763.770    22021763.359    22021770.859   117718979.202 7  91559202.992 6
      2227.164        1732.238          46.000          39.000
  22573208.672    22573208.233    22573213.927   118623086.975 5  92433525.431 5
      2784.766        2169.943          30.000          30.000
  21399120.386    21399120.025    21399125.576   114270131.014 7  88876799.432 7
     -4442.748       -3455.471          46.000          45.000
  20400126.511    20400125.726    20400128.276   109088706.009 8  84846813.504 7
     -1223.529        -951.634          50.000          43.000
  19667726.000    19667725.499    19667732.265   104840066.597 8  81542305.029 7
      -935.076        -727.278          48.000          44.000
 14 12  9  0  6 30.0000000  0 14R15R17R08G20G28G17G24G02G06R01G10R13 -.000447284
                                R24R14
  22145465.555    22145466.202    22145470.668   118338661.641 7  92041216.560 6
      2485.968        1933.535          46.000          41.000
  21912946.752    21912946.259    21912949.357   117260611.818 7  91202733.703 7
       935.582         727.675          46.000          46.000
  22533145.888    22533146.161    22533149.239   120663998.773 7  93849826.305 7
      -774.701        -602.544          43.000          45.000
  23285082.827    23285081.856    23285084.642   122363956.474 5  95348541.004 5
     -2272.911       -1771.097          31.000          31.000
  21485987.035    21485986.648    21485989.732   112909636.534 6  87981553.128 6
     -2408.412       -1876.682          37.000          37.000
  21509865.083    21509865.094    21509867.778   113035122.483 6  88079336.488 6
     -1259.521        -981.446          41.000          41.000
  23314988.965    23314987.893    23314993.355   122521102.782 4  95470989.025 4
       106.881          83.278          28.000          28.000
  21990409.858    21990408.879    21990409.162   115560403.075 6  90047089.456 6
      1563.830        1218.566          37.000          37.000
  20121721.276    20121721.899    20121727.089   105740402.758 7  82395139.371 7
      -350.609        -273.201          47.000          47.000
  22009300.522    22009299.910    22009307.722   117652355.660 7  91507384.667 6
      2214.353        1722.273          46.000          39.000
  22557328.200    22557326.252    22557332.532   118539627.420 5  92368491.982 5
      2779.137        2165.566          31.000          31.000
  21424112.312    21424111.413    21424116.760   114403581.583 7  88980594.281 7
     -4454.007       -3464.226          46.000          46.000
  20407000.472    20407000.043    20407002.708   109125467.199 8  84875405.531 7
     -1227.235        -954.514          50.000          43.000
  19673066.442    19673066.169    19673073.183   104868536.342 8  81564448.153 7
      -962.970        -748.977          48.000          45.000
 14 12  9  0  7  0.0000000  0 14R15R17R08G20G28G17G24G02G06R01G10R13 -.000437550
                                R24R14
  22131561.264    22131562.240    22131567.606   118264364.696 7  91983430.055 7
      2467.630        1919.264          45.000          42.000
  21907718.753    21907718.460    21907720.679   117232632.830 7  91180972.262 7
       930.234         723.516          47.000          45.000
  22537553.403    22537553.782    22537556.396   120687600.834 7  93868183.441 7
      -798.210        -620.837          45.000          45.000
  23298105.433    23298104.942    23298108.146   122432393.570 5  95401868.555 5
     -2289.135       -1783.740          31.000          31.000
  21499777.369    21499776.702    21499779.118   112982101.035 6  88038018.933 6
     -2422.069       -1887.327          37.000          37.000
  21517065.044    21517065.084    21517067.825   113072958.241 6  88108818.865 6
     -1262.403        -983.686          41.000          41.000
  23314428.756    23314428.510    23314434.155   122518163.599 4  95468698.743 4
        89.562          69.775          28.000          28.000
  21981512.423    21981511.434    21981512.149   115513648.998 6  90010657.716 6
      1553.577        1210.580          38.000          37.000
  20123768.794    20123769.125    20123774.150   105751160.854 8  82403522.300 7
      -366.115        -285.286          48.000          47.000
  21996911.400    21996911.019    21996918.507   117586130.173 7  91455875.935 6
      2201.204        1712.054          45.000          39.000
  22541479.502    22541478.367    22541484.538   118456345.618 5  92303597.042 5
      2773.393        2161.085          30.000          30.000
  21449168.306    21449167.589    21449172.546   114537378.574 7  89084658.565 7
     -4465.285       -3472.998          46.000          46.000
  20413897.837    20413897.383    20413899.617   109162349.018 8  84904091.394 7
     -1231.081        -957.510          50.000          42.000
  19678566.241    19678565.665    19678573.002   104897852.366 8  81587249.487 7
      -990.934        -770.725          48.000          44.000
 14 12  9  0  7 30.0000000  0 15R15R17R08G20R23G28G17G24G02G06R01G10 -.000427819
                                R13R24R14
  22117761.532    22117761.277    22117766.296   118190615.649 7  91926069.677 7
      2449.279        1904.996          45.000          42.000
  21902518.580    21902518.900    21902521.551   117204809.354 7  91159331.772 7
       925.033         719.472          47.000          46.000
  22542092.739    22542092.955    22542095.262   120711904.972 7  93887086.659 7
      -821.685        -639.090          46.000          46.000
  23311220.610    23311219.679    23311222.851   122501312.356 5  95455571.449 5
     -2305.118       -1796.197          30.000          30.000
  22691150.810    22691150.194    22691152.891   121382357.794 5  94408531.170 1
     -2748.678       -2137.852          35.000           1.000
  21513643.628    21513643.016    21513646.050   113054971.331 6  88094800.933 6
     -2435.610       -1897.878          37.000          37.000
  21524281.080    21524280.989    21524283.562   113110876.637 7  88138365.635 6
     -1265.185        -985.854          42.000          41.000
  23313967.270    23313967.425    23313972.831   122515740.338 4  95466810.487 4
        72.303          56.341          29.000          28.000
  21972672.186    21972672.140    21972672.997   115467198.585 6  89974462.604 6
      1543.439        1202.681          38.000          38.000
  20125903.553    20125903.888    20125908.964   105762379.260 7  82412263.910 7
      -381.450        -297.233          47.000          47.000
  21984595.842    21984595.500    21984601.965   117520296.585 7  91404672.010 6
      2188.046        1701.818          45.000          39.000
  22525664.746    22525662.879    22525668.637   118373234.768 5  92238835.317 5
      2767.621        2156.588          30.000          30.000
  21474286.268    21474285.475    21474290.391   114671507.073 7  89188980.694 7
     -4476.236       -3481.511          46.000          46.000
  20420815.267    20420814.869    20420817.733   109199339.576 8  84932861.818 7
     -1234.700        -960.324          50.000          43.000
  19684222.879    19684222.028    19684229.344   104928002.951 8  81610699.928 7
     -1018.781        -792.381          48.000          44.000
 14 12  9  0  8  0.0000000  0 15R15R17R08G20R23G28G17G24G02G06R01G10 -.000418090
                                R13R24R14
  22104062.243    22104062.538    22104068.497   118117417.481 7  91869137.776 7
      2430.927        1890.721          45.000          43.000
  21897347.637    21897347.218    21897351.043   117177139.148 7  91137810.502 7
       919.999         715.557          46.000          45.000
  22546763.038    22546762.557    22546765.009   120736910.639 7  93906535.491 7
      -845.059        -657.267          45.000          46.000
  23324426.631    23324425.831    23324428.814   122570710.273 5  95509647.690 5
     -2321.067       -1808.614          30.000          30.000
  22706561.588    22706559.688    22706562.627   121464790.371 5  94472645.817 5
     -2746.454       -2136.135          33.000          30.000
  21527587.835    21527586.832    21527589.830   113128245.973 6  88151898.004 6
     -2449.068       -1908.365          37.000          37.000
  21531512.572    21531512.321    21531514.555   113148876.628 6  88167975.997 6
     -1267.850        -987.935          41.000          41.000
  23313603.913    23313603.866    23313609.462   122513831.497 4  95465323.068 4
        55.207          43.017          29.000          28.000
  21963891.255    21963890.586    21963891.539   115421051.393 6  89938503.770 6
      1533.332        1194.807          38.000          37.000
  20128125.464    20128125.916    20128130.961   105774055.790 8  82421362.503 7
      -396.685        -309.106          48.000          47.000
  21972354.227    21972354.297    21972360.337   117454857.807 7  91353775.165 6
      2174.833        1691.536          46.000          38.000
  22509882.013    22509881.144    22509885.926   118290296.933 5  92174208.402 5
      2761.850        2152.093          30.000          30.000
  21499465.277    21499464.334    21499469.574   114805960.992 7  89293555.936 7
     -4487.022       -3489.904          46.000          46.000
  20427752.338    20427751.875    20427754.585   109236436.548 8  84961715.010 7
     -1238.173        -963.021          50.000          43.000
  19690035.026    19690034.347    19690041.571   104958986.135 8  81634797.946 7
     -1046.442        -813.897          48.000          44.000
 14 12  9  0  8 30.0000000  0 15R15R17R08G20R23G28G17G24G02G06R01G10 -.000408361
                                R13R24R14
  22090467.926    22090468.983    22090475.429   118044778.616 7  91812640.890 7
      2412.090        1876.070          45.000          43.000
  21892206.387    21892205.793    21892210.054   117149626.838 7  91116412.038 7
       914.571         711.334          47.000          46.000
  22551563.952    22551564.122    22551566.704   120762624.139 7  93926534.816 7
      -868.783        -675.718          45.000          47.000
  23337725.129    23337723.963    23337726.825   122640591.580 4  95564100.606 4
     -2337.301       -1821.265          29.000          29.000
  22721959.704    22721960.110    22721964.398   121547166.225 5  94536715.766 5
     -2744.743       -2134.792          34.000          31.000
  21541609.326    21541608.755    21541611.253   113201930.020 6  88209314.094 6
     -2462.803       -1919.069          37.000          37.000
  21538760.058    21538760.083    21538762.580   113186964.547 6  88197654.883 6
     -1270.921        -990.328          41.000          41.000
  23313339.332    23313339.935    23313345.094   122512443.589 4  95464241.567 4
        37.742          29.420          29.000          29.000
  21955168.322    21955167.993    21955168.986   115375213.512 6  89902785.955 6
      1522.907        1186.676          38.000          38.000
  20130435.524    20130435.929    20130440.938   105786195.170 7  82430821.759 7
      -412.213        -321.205          47.000          47.000
  21960187.477    21960187.679    21960195.083   117389824.501 7  91303193.687 6
      2161.127        1680.878          46.000          38.000
  22494134.842    22494132.651    22494137.616   118207541.266 5  92109723.439 5
      2755.573        2147.209          30.000          30.000
  21524704.022    21524704.025    21524709.472   114940741.783 7  89398385.385 7
     -4497.949       -3498.401          45.000          45.000
  20434710.415    20434709.690    20434712.920   109273644.390 8  84990654.437 7
     -1241.950        -965.960          50.000          43.000
  19696004.555    19696003.676    19696011.023   104990806.679 8  81659547.242 7
     -1074.462        -835.692          48.000          44.000
 14 12  9  0  9  0.0000000  0 15R15R17R08G20R23G28G17G24G02G06R01G10 -.000398630
                                R13R24R14
  22076980.115    22076981.143    22076987.404   117972704.600 7  91756583.319 7
      2392.852        1861.108          44.000          43.000
  21887094.273    21887093.959    21887098.686   117122273.419 7  91095137.173 7
       909.023         707.019          47.000          46.000
  22556498.012    22556498.241    22556501.283   120789047.608 7  93947086.331 7
      -892.816        -694.408          45.000          47.000
  23351114.592    23351113.711    23351116.816   122710956.399 4  95618930.295 4
     -2353.617       -1833.991          28.000          27.000
  22737347.154    22737347.983    22737353.816   121629487.233 5  94600743.140 5
     -2743.186       -2133.583          33.000          31.000
  21555709.053    21555708.565    21555711.100   113276024.757 6  88267050.198 6
     -2476.784       -1929.958          37.000          37.000
  21546024.677    21546024.742    21546027.496   113225142.183 6  88227403.661 6
     -1274.198        -992.884          41.000          41.000
  23313174.271    23313174.736    23313180.439   122511577.435 4  95463566.631 4
        20.028          15.596          29.000          29.000
  21946505.863    21946504.798    21946505.671   115329687.535 6  89867311.171 6
      1512.201        1178.337          38.000          38.000
  20132833.919    20132834.062    20132839.225   105798798.163 7  82440642.271 7
      -427.936        -333.458          47.000          47.000
  21948099.451    21948099.292    21948106.513   117325202.623 7  91252932.214 6
      2147.009        1669.898          47.000          38.000
  22478421.897    22478420.928    22478425.739   118124972.898 5  92045384.440 5
      2749.000        2142.074          30.000          30.000
  21550005.268    21550004.891    21550010.333   115075846.437 7  89503466.752 7
     -4508.979       -3506.985          45.000          46.000
  20441689.033    20441688.764    20441692.010   109310963.685 8  85019680.541 7
     -1245.960        -969.080          50.000          43.000
  19702131.025    19702130.422    19702137.908   105023465.781 8  81684948.749 7
     -1102.726        -857.675          48.000          44.000
 14 12  9  0  9 30.0000000  0 16R15R17R08G20R23G28G17G24G02G06R01G10 -.000388898
                                G12R13R24R14
  22063599.279    22063600.034    22063605.943   117901199.177 7  91700967.993 7
      2373.813        1846.300          44.000          43.000
  21882012.462    21882011.767    21882015.701   117095077.060 7  91073984.458 7
       903.747         702.913          47.000          46.000
  22561565.655    22561565.581    22561568.160   120816181.179 7  93968190.167 7
      -916.429        -712.779          47.000          46.000
  23364596.920    23364595.585    23364598.817   122781803.200 4  95674135.546 4
     -2369.699       -1846.523          26.000          26.000
  22752721.091    22752726.513    22752732.989   121711752.797 5  94664727.423 5
     -2741.608       -2132.374          30.000          31.000
  21569887.387    21569886.692    21569889.291   113350529.375 6  88325105.692 6
     -2490.503       -1940.652          37.000          37.000
  21553306.511    21553306.970    21553309.565   113263409.749 6  88257222.526 6
     -1277.252        -995.263          41.000          41.000
  23313108.880    23313109.464    23313115.064   122511233.407 5  95463298.543 5
         2.602           2.029          30.000          30.000
  21937901.870    21937900.729    21937901.693   115284472.832 6  89832078.941 6
      1501.791        1170.226          38.000          38.000
  20135320.080    20135320.436    20135325.498   105811863.484 8  82450823.037 7
      -443.378        -345.488          48.000          47.000
  21936088.163    21936087.451    21936095.132   117260996.460 7  91202994.089 6
      2133.052        1659.041          47.000          39.000
  22462747.312    22462745.061    22462748.925   118042594.741 5  91981193.648 5
      2742.585        2137.081          30.000          30.000
  24210632.236                                   127227726.988 6
      2860.584                          37.000
  21575366.164    21575365.392    21575371.445   115211271.050 7  89608796.956 7
     -4519.574       -3515.223          44.000          46.000
  20448689.072    20448688.495    20448691.481   109348393.299 8  85048792.445 7
     -1249.641        -971.941          50.000          43.000
  19708414.614    19708414.004    19708421.583   105056961.757 7  81711001.166 7
     -1130.661        -879.402          47.000          45.000
 14 12  9  0 10  0.0000000  0 15R15R17R08G20G28G17G24G02G06R01G10G12 -.000379168
                                R13R24R14
  22050324.507    22050324.904    22050330.281   117830258.240 7  91645791.711 7
      2355.074        1831.725          44.000          43.000
  21876957.898    21876957.834    21876961.677   117068029.890 7  91052947.776 7
       898.936         699.173          47.000          46.000
  22566764.119    22566764.067    22566766.812   120844018.453 7  93989841.338 7
      -939.837        -730.983          47.000          46.000
  23378168.647    23378167.052    23378170.666   122853123.690 4  95729709.912 4
     -2385.423       -1858.775          25.000          25.000
  21584141.502    21584140.895    21584143.495   113425436.379 6  88383474.737 6
     -2503.822       -1951.032          37.000          37.000
  21560605.155    21560605.189    21560607.743   113301761.052 6  88287106.634 6
     -1279.944        -997.356          41.000          41.000
  23313141.228    23313141.900    23313147.357   122511404.051 4  95463431.498 4
       -14.454         -11.263          29.000          29.000
  21929356.201    21929354.686    21929355.785   115239563.425 6  89797084.601 6
      1491.723        1162.382          38.000          38.000
  20137892.941    20137893.202    20137898.405   105825383.294 8  82461357.951 7
      -458.393        -357.188          48.000          47.000
  21924153.954    21924153.681    21924161.862   117197203.137 7  91153377.056 6
      2119.358        1648.394          47.000          40.000
  22447105.669    22447104.707    22447108.762   117960403.289 5  91917148.349 5
      2736.395        2132.248          31.000          31.000
  24194301.244    24194301.400    24194303.798   127141915.654 4  99071643.273 4
      2859.797        2228.415          26.000          26.000
  21600785.221    21600784.409    21600789.480   115347003.459 7  89714366.569 7
     -4529.719       -3523.113          45.000          45.000
  20455707.460    20455706.963    20455709.786   109385924.732 8  85077983.547 7
     -1252.934        -974.508          50.000          43.000
  19714853.751    19714853.256    19714860.860   105091286.841 8  81737698.443 7
     -1158.160        -900.789          48.000          45.000
 14 12  9  0 10 30.0000000  0 15R15R17R08G20G28G17G24G02G06R01G10G12 -.000369434
                                R13R24R14
  22037156.293    22037157.499    22037163.251   117759896.031 7  91591065.547 7
      2335.757        1816.702          45.000          44.000
  21871932.829    21871932.757    21871936.622   117041140.241 7  91032033.635 7
       893.736         695.128          47.000          46.000
  22572095.904    22572095.796    22572098.500   120872569.177 7  94012047.438 7
      -963.567        -749.441          47.000          45.000
  23391832.051    23391830.748    23391834.854   122924925.759 4  95785659.542 4
     -2401.332       -1871.162          24.000          24.000
  21598474.591    21598473.243    21598476.242   113500754.935 6  88442164.463 6
     -2517.446       -1961.645          37.000          37.000
  21567921.359    21567920.930    21567923.707   113340205.457 7  88317063.290 7
     -1283.012        -999.747          42.000          42.000
  23313272.631    23313274.037    23313279.112   122512098.513 4  95463972.627 4
       -31.811         -24.795          29.000          29.000
  21920868.858    21920868.600    21920869.752   115194969.080 6  89762335.759 6
      1481.276        1154.239          37.000          38.000
  20140553.700    20140554.052    20140559.173   105839365.796 8  82472253.400 8
      -473.766        -369.170          48.000          48.000
  21912300.576    21912300.248    21912307.766   117133836.717 7  91104092.053 6
      2105.071        1637.275          47.000          40.000
  22431503.773    22431502.300    22431506.478   117878411.696 5  91853258.784 5
      2729.754        2127.075          31.000          31.000
  24177981.410    24177979.748    24177981.249   127056141.067 3  99004805.942 3
      2858.517        2227.411          23.000          23.000
  21626261.756    21626261.346    21626266.251   115483049.057 7  89820179.761 7
     -4539.975       -3531.088          44.000          45.000
  20462746.401    20462746.217    20462749.166   109423566.436 8  85107260.416 7
     -1256.528        -977.300          50.000          43.000
  19721450.342    19721449.916    19721457.187   105126449.227 8  81765046.952 7
     -1186.008        -922.451          48.000          45.000
 14 12  9  0 11  0.0000000  0 15R15R17R08G20G28G17G24G02G06R01G10G12 -.000359704
                                R13R24R14
  22024096.575    22024096.972    22024102.621   117690104.344 7  91536783.118 7
      2316.658        1801.843          45.000          44.000
  21866934.441    21866934.442    21866938.762   117014395.750 7  91011232.378 7
       888.954         691.408          47.000          46.000
  22577558.512    22577558.712    22577561.428   120901822.090 7  94034799.666 7
      -986.944        -767.624          46.000          46.000
  23405585.080    23405583.859    23405586.790   122997196.071 3  95841974.011 3
     -2416.923       -1883.349          22.000          22.000
  21612883.190    21612882.145    21612885.066   113576472.921 6  88501165.442 6
     -2530.721       -1971.990          36.000          36.000
  21575252.614    21575252.511    21575255.135   113378731.924 7  88347083.885 7
     -1285.743       -1001.881          42.000          42.000
  23313503.727    23313503.690    23313508.985   122513305.810 4  95464913.355 4
       -48.915         -38.114          29.000          29.000
  21912440.987    21912440.310    21912441.758   115150679.301 6  89727824.242 6
      1471.053        1146.275          38.000          38.000
  20143300.376    20143300.570    20143305.608   105853798.781 7  82483499.876 7
      -488.740        -380.836          47.000          47.000
  21900524.909    21900524.354    21900532.419   117070890.348 7  91055133.752 6
      2091.027        1626.356          47.000          40.000
  22415936.825    22415935.945    22415940.488   117796611.885 5  91789518.641 5
      2723.269        2122.030          32.000          32.000
  24161665.325    24161663.364    24161664.953   126970395.540 3  98937991.285 3
      2857.477        2226.593          23.000          23.000
  21651794.613    21651794.145    21651798.155   115619391.710 7  89926223.996 7
     -4549.869       -3538.787          44.000          44.000
  20469804.298    20469803.491    20469806.561   109461305.877 8  85136613.299 7
     -1259.774        -979.826          50.000          44.000
  19728202.110    19728201.279    19728208.323   105162436.568 8  81793037.090 7
     -1213.443        -943.790          48.000          44.000
 14 12  9  0 11 30.0000000  0 15R15R17R08G20G28G17G24G02G06R01G10G12 -.000349976
                                R13R24R14
  22011143.383    22011144.048    22011150.187   117620889.128 7  91482949.054 7
      2297.814        1787.188          45.000          44.000
  21861963.837    21861964.203    21861968.336   116987797.306 8  90990544.716 7
       884.466         687.917          48.000          46.000
  22583151.599    22583152.295    22583155.720   120931779.828 7  94058100.095 7
     -1010.074        -785.610          45.000          46.000
  23419426.218    23419425.392    23419428.732   123069935.476 3  95898653.986 3
     -2432.211       -1895.207          21.000          20.000
  21627367.431    21627366.763    21627370.120   113652591.717 6  88560478.741 6
     -2543.702       -1982.100          36.000          36.000
  21582599.963    21582599.884    21582602.458   113417343.406 6  88377170.729 6
     -1288.194       -1003.791          41.000          41.000
  23313832.248    23313831.594    23313836.932   122515027.645 4  95466255.034 4
       -65.730         -51.213          29.000          29.000
  21904071.519    21904070.759    21904071.640   115106696.064 6  89693551.594 6
      1461.222        1138.615          37.000          38.000
  20146132.194    20146132.924    20146137.957   105868683.260 8  82495098.168 7
      -503.405        -392.266          48.000          47.000
  21888829.584    21888829.279    21888836.483   117008370.275 8  91006507.027 6
      2077.136        1615.549          48.000          40.000
  22400408.125    22400407.731    22400412.254   117715009.258 5  91725932.159 5
      2717.044        2117.173          32.000          32.000
  24145352.412    24145351.885    24145353.698   126884683.183 3  98871202.495 3
      2856.745        2226.023          21.000          21.000
  21677382.672    21677381.457    21677386.588   115756029.409 7  90032497.701 7
     -4559.180       -3546.026          43.000          44.000
  20476880.136    20476879.767    20476882.785   109499144.132 8  85166043.036 7
     -1262.613        -982.030          51.000          44.000
  19735107.989    19735107.607    19735114.327   105199249.818 8  81821669.596 7
     -1240.620        -964.927          49.000          44.000
 14 12  9  0 12  0.0000000  0 15R15R17R08G20G28G17G24G02G06R01G10G12 -.000340249
                                R13R24R14
  21998300.063    21998300.606    21998306.645   117552257.064 7  91429568.558 7
      2277.822        1771.642          45.000          44.000
  21857021.420    21857021.784    21857025.182   116961347.796 8  90969972.867 7
       879.052         683.706          48.000          45.000
  22588879.043    22588879.519    22588882.518   120962446.134 7  94081951.622 7
     -1034.144        -804.334          45.000          46.000
  23433358.579    23433357.236    23433361.477   123143146.063 3  95955701.154 3
     -2448.395       -1907.817          18.000          18.000
  21641928.755    21641928.349    21641932.114   113729114.654 6  88620106.961 6
     -2557.657       -1992.975          36.000          36.000
  21589964.570    21589964.261    21589966.776   113456043.793 6  88407326.849 6
     -1291.661       -1006.486          41.000          41.000
  23314258.607    23314258.553    23314263.133   122517267.729 5  95468000.543 4
       -83.485         -65.048          30.000          29.000
  21895761.333    21895760.388    21895761.036   115063023.175 6  89659520.784 6
      1450.445        1130.214          38.000          38.000
  20149051.256    20149051.712    20149056.792   105884021.782 7  82507050.255 7
      -518.991        -404.405          47.000          47.000
  21877214.484    21877214.649    21877221.991   116946284.434 7  90958218.018 6
      2062.100        1603.860          47.000          40.000
  22384918.859    22384917.981    22384922.764   117633610.904 5  91662504.847 5
      2709.700        2111.452          32.000          32.000
  24129050.174    24129049.564    24129051.459   126799010.394 3  98804444.528 3
      2854.947        2224.631          21.000          21.000
  21703025.804    21703024.850    21703029.420   115892961.270 7  90139000.201 7
     -4569.374       -3553.954          44.000          44.000
  20483975.663    20483974.737    20483977.569   109537083.956 8  85195551.769 7
     -1266.510        -985.062          50.000          43.000
  19742169.705    19742169.370    19742176.004   105236891.178 8  81850946.191 7
     -1268.671        -986.743          48.000          44.000
 14 12  9  0 12 30.0000000  0 15R15R17R08G20G28G17G24G02G06R01G10G12 -.000330521
                                R13R24R14
  21985566.817    21985567.245    21985573.149   117484212.800 7  91376645.234 7
      2258.311        1756.464          46.000          44.000
  21852106.678    21852107.109    21852110.058   116935046.561 8  90949516.348 7
       874.235         679.960          48.000          46.000
  22594738.299    22594738.266    22594741.731   120993822.083 7  94106355.091 7
     -1057.672        -822.631          46.000          46.000
  23447378.068    23447378.423    23447381.810   123216826.989 2  96013114.831 2
     -2463.798       -1919.859          15.000          15.000
  21656568.297    21656567.585    21656570.691   113806042.111 6  88680050.384 6
     -2570.956       -2003.334          36.000          36.000
  21597345.851    21597346.213    21597348.367   113494834.325 7  88437553.218 7
     -1294.524       -1008.719          42.000          42.000
  23314783.645    23314783.470    23314788.214   122520026.555 5  95470150.255 5
      -100.625         -78.414          30.000          30.000
  21887510.007    21887509.010    21887509.507   115019662.548 6  89625733.291 6
      1440.132        1122.185          38.000          38.000
  20152056.706    20152057.028    20152062.068   105899814.229 8  82519356.055 7
      -533.961        -416.074          48.000          47.000
  21865683.562    21865682.742    21865690.494   116884638.507 8  90910271.175 6
      2047.497        1592.500          48.000          41.000
  22369469.887    22369468.248    22369473.135   117552421.223 5  91599240.129 5
      2702.778        2106.066          32.000          32.000
  24112756.686    24112753.943    24112756.949   126713379.714 3  98737719.367 3
      2853.602        2223.587          21.000          21.000
  21728723.059    21728721.931    21728726.688   116030183.441 7  90245728.502 7
     -4578.888       -3561.350          43.000          44.000
  20491089.145    20491088.447    20491091.516   109575125.035 8  85225139.267 7
     -1269.747        -987.579          50.000          43.000
  19749386.156    19749385.765    19749392.528   105275360.561 8  81880866.800 7
     -1296.123       -1008.098          49.000          44.000
 14 12  9  0 13  0.0000000  0 15R15R17R08G20G28G17G24G02G06R01G10G12 -.000320791
                                R13R24R14
  21972944.697    21972945.066    21972950.934   117416763.179 7  91324184.412 7
      2238.628        1741.158          46.000          44.000
  21847219.925    21847220.226    21847223.088   116908895.696 8  90929176.776 7
       869.445         676.233          48.000          45.000
  22600731.181    22600731.024    22600734.237   121025910.547 7  94131312.743 7
     -1081.194        -840.925          46.000          46.000
  23461488.848    23461488.895    23461489.950   123290979.631 2  96070896.029 2
     -2479.419       -1932.029          12.000          12.000
  21671284.103    21671283.710    21671286.855   113883375.716 6  88740310.290 6
     -2584.335       -2013.763          36.000          36.000
  21604745.493    21604745.560    21604747.755   113533718.139 6  88467852.268 7
     -1297.436       -1010.991          41.000          42.000
  23315407.886    23315408.156    23315412.293   122523306.867 5  95472706.328 5
      -117.761         -91.758          30.000          30.000
  21879318.466    21879317.823    21879318.293   114976617.249 6  89592191.514 6
      1429.846        1114.167          39.000          39.000
  20155148.589    20155148.884    20155153.949   105916062.044 8  82532016.680 8
      -548.935        -427.740          48.000          48.000
  21854235.220    21854234.762    21854241.438   116823439.070 7  90862671.590 6
      2032.760        1581.034          47.000          41.000
  22354061.152    22354059.371    22354064.055   117471446.281 5  91536142.749 5
      2695.748        2100.586          32.000          32.000
  24096469.082    24096468.333    24096470.564   126627796.313 3  98671031.034 3
      2852.241        2222.512          22.000          22.000
  21754473.990    21754473.370    21754478.611   116167694.519 7  90352681.508 7
     -4588.199       -3568.602          44.000          44.000
